{
  "type": "FeatureCollection",
  "features": [{
    "type": "Feature",
    "properties": {
      "name": "Roman Colosseum",
      "marker-color": "#104E8B",
      "marker-symbol": "monument"
    },
    "geometry": {
      "type": "Point",
      "coordinates": [12.4900422, 41.8902142]
    }
  },
  {
    "type": "Feature",
    "properties": {
      "name": "Roman Forum",
      "marker-color": "#104E8B",
      "marker-symbol": "monument"
    },
    "geometry": {
      "type": "Point",
      "coordinates": [12.4831363, 41.8924663]
    }
  },
  {
    "type": "Feature",
    "properties": {
      "name": "Trevi Fountain",
      "marker-color": "#104E8B",
      "marker-symbol": "monument"
    },
    "geometry": {
      "type": "Point",
      "coordinates": [12.4811243, 41.9009365]
    }
  },
  {
    "type": "Feature",
    "properties": {
      "name": "Spanish Steps",
      "marker-color": "#104E8B",
      "marker-symbol": "monument"
    },
    "geometry": {
      "type": "Point",
      "coordinates": [12.4805863, 41.905994]
    }
  },
  {
    "type": "Feature",
    "properties": {
      "name": "Sistine Chapel",
      "marker-color": "#104E8B",
      "marker-symbol": "monument"
    },
    "geometry": {
      "type": "Point",
      "coordinates": [12.4522948, 41.9029508]
    }
  },
  {
    "type": "Feature",
    "properties": {
      "name": "St. Peter's Basilica",
      "marker-color": "#104E8B",
      "marker-symbol": "monument"
    },
    "geometry": {
      "type": "Point",
      "coordinates": [12.451748, 41.9021707]
    }
  }
  ]
}
